{
	"users": [
		{
			"id": "11",
			"name": "Larry L",
			"phone": "+18148628745",
			"latitude": 32.716038,
			"longitude": -117.252674,
			"risk": 5
		},
		{
			"id": "12",
			"name": "Heny H",
			"phone": "+18148628745",
			"latitude": 32.748962,
			"longitude": -117.200798,
			"risk": 2
		},
		{
			"id": "1",
			"name": "Jack J",
			"phone": "+18148628745",
			"home": "123 Strawberry Lane",
			"date": "October 10, 1920",
			"latitude": 32.735317,
			"longitude": -117.149048
		},
		{
			"id": "2",
			"name": "Mary M",
			"phone": "+18148628745",
			"home": "123 Strawberry Lane",
			"date": "October 10, 1936",
			"latitude": 32.732346,
			"longitude": -117.196053
		},
		{
			"id": "3",
			"name": "Betty B",
			"phone": "+18148628745",
			"home": "123 Strawberry Lane",
			"date": "October 10, 1927",
			"latitude": 32.7542,
			"longitude": -117.1970
		},
		{
			"id": "4",
			"name": "Thomas T",
			"phone": "+18148628745",
			"home": "123 Strawberry Lane",
			"date": "October 10, 1940",
			"latitude": 32.8241,
			"longitude": -117.1937
		},
		{
			"id": "5",
			"name": "Samantha S",
			"phone": "+18148628745",
			"home": "123 Strawberry Lane",
			"date": "October 10, 1950",
			"latitude": 32.8577,
			"longitude": -117.2054
		},
		{
			"id": "6" ,
			"name": "Daisy D",
			"phone": "+18148628745",
			"home": "123 Strawberry Lane",
			"date": "October 10, 1950",
			"latitude": 32.8242,
			"longitude": -117.2176
		},
		{
			"id": "7",
			"name": "George G",
			"phone": "+18148628745",
			"home": "123 Strawberry Lane",
			"date": "October 10, 1947",
			"latitude": 32.8354,
			"longitude": -117.2014
		},
		{
			"id": "8",
			"name": "Daisy D",
			"phone": "+18148628745",
			"home": "123 Strawberry Lane",
			"date": "October 10, 1947",
			"latitude": 32.8398,
			"longitude": -117.2523
		},
		{
			"id": "9",
			"name": "Natalie N",
			"phone": "+18148628745",
			"home": "123 Strawberry Lane",
			"date": "October 10, 1965",
			"latitude": 32.8609,
			"longitude": -117.2336
		},
		{
			"id": "10",
			"name": "Patrick P",
			"phone": "+18148628745",
			"home": "123 Strawberry Lane",
			"date": "October 10, 1956",
			"latitude": 32.8681,
			"longitude": -117.2503
		} 
	]
}
